[
  {"code":"DT_0001","name":"인천",    "lat":37.450,"lng":126.600,"sea":"서해"},
  {"code":"IE_0001","name":"백령도",  "lat":37.950,"lng":124.733,"sea":"서해"},
  {"code":"IE_0002","name":"대청도",  "lat":37.833,"lng":124.717,"sea":"서해"},
  {"code":"IE_0062","name":"옹진소청초","lat":37.417,"lng":124.733,"sea":"서해"},
  {"code":"IE_0003","name":"연평도",  "lat":37.617,"lng":125.717,"sea":"서해"},
  {"code":"DT_0052","name":"인천송도","lat":37.390,"lng":126.643,"sea":"서해"},
  {"code":"DT_0093","name":"소무의도","lat":37.383,"lng":126.433,"sea":"서해"},
  {"code":"DT_0044","name":"영종대교","lat":37.560,"lng":126.594,"sea":"서해"},
  {"code":"DT_0008","name":"안산",    "lat":37.233,"lng":126.847,"sea":"서해"},
  {"code":"DT_0043","name":"영흥도",  "lat":37.237,"lng":126.467,"sea":"서해"},
  {"code":"DT_0065","name":"덕적도",  "lat":37.233,"lng":126.082,"sea":"서해"},
  {"code":"DT_0002","name":"평택",    "lat":36.967,"lng":126.817,"sea":"서해"},
  {"code":"DT_0017","name":"대산",    "lat":37.000,"lng":126.352,"sea":"서해"},
  {"code":"DT_0067","name":"안흥",    "lat":36.673,"lng":126.128,"sea":"서해"},
  {"code":"DT_0050","name":"태안",    "lat":36.843,"lng":126.283,"sea":"서해"},
  {"code":"DT_0025","name":"보령",    "lat":36.399,"lng":126.487,"sea":"서해"},
  {"code":"DT_0051","name":"서천마량","lat":36.243,"lng":126.505,"sea":"서해"},
  {"code":"DT_0024","name":"장항",    "lat":36.000,"lng":126.683,"sea":"서해"},
  {"code":"DT_0018","name":"군산",    "lat":35.983,"lng":126.716,"sea":"서해"},
  {"code":"DT_0068","name":"위도",    "lat":35.617,"lng":126.300,"sea":"서해"},
  {"code":"DT_0037","name":"어청도",  "lat":36.117,"lng":125.983,"sea":"서해"},
  {"code":"DT_0066","name":"향화도",  "lat":35.700,"lng":126.133,"sea":"서해"},
  {"code":"DT_0003","name":"영광",    "lat":35.433,"lng":126.417,"sea":"서해"},
  {"code":"DT_0007","name":"목포",    "lat":34.783,"lng":126.383,"sea":"서해"},
  {"code":"DT_0028","name":"진도",    "lat":34.490,"lng":126.267,"sea":"남해"},
  {"code":"DT_0027","name":"완도",    "lat":34.317,"lng":126.767,"sea":"남해"},
  {"code":"DT_0031","name":"거문도",  "lat":34.027,"lng":127.310,"sea":"남해"},
  {"code":"DT_0092","name":"여호항",  "lat":34.417,"lng":127.383,"sea":"남해"},
  {"code":"DT_0026","name":"고흥발포","lat":34.658,"lng":127.178,"sea":"남해"},
  {"code":"DT_0016","name":"여수",    "lat":34.750,"lng":127.767,"sea":"남해"},
  {"code":"DT_0049","name":"광양",    "lat":34.937,"lng":127.709,"sea":"남해"},
  {"code":"DT_0061","name":"삼천포",  "lat":34.928,"lng":128.068,"sea":"남해"},
  {"code":"DT_0014","name":"통영",    "lat":34.833,"lng":128.433,"sea":"남해"},
  {"code":"DT_0042","name":"교본초",  "lat":34.608,"lng":128.349,"sea":"남해"},
  {"code":"DT_0029","name":"거제도",  "lat":34.878,"lng":128.710,"sea":"남해"},
  {"code":"DT_0062","name":"마산",    "lat":35.200,"lng":128.567,"sea":"남해"},
  {"code":"DT_0063","name":"가덕도",  "lat":34.961,"lng":128.963,"sea":"남해"},
  {"code":"DT_0056","name":"부산신항","lat":35.052,"lng":128.797,"sea":"남해"},
  {"code":"DT_0005","name":"부산",    "lat":35.100,"lng":129.033,"sea":"남해"},
  {"code":"DT_0020","name":"울산",    "lat":35.500,"lng":129.389,"sea":"동해"},
  {"code":"DT_0195","name":"묵호",    "lat":37.551,"lng":129.126,"sea":"동해"},
  {"code":"DT_0196","name":"동해항",  "lat":37.503,"lng":129.117,"sea":"동해"},
  {"code":"DT_0012","name":"속초",    "lat":38.200,"lng":128.600,"sea":"동해"},
  {"code":"DT_0021","name":"추자도",  "lat":33.950,"lng":126.300,"sea":"제주"},
  {"code":"DT_0004","name":"제주",    "lat":33.533,"lng":126.550,"sea":"제주"},
  {"code":"DT_0022","name":"성산포",  "lat":33.467,"lng":126.933,"sea":"제주"},
  {"code":"DT_0010","name":"서귀포",  "lat":33.233,"lng":126.567,"sea":"제주"},
  {"code":"DT_0023","name":"모슬포",  "lat":33.217,"lng":126.250,"sea":"제주"}
]
